{"type": "FeatureCollection", "features": [{"type": "Feature", "geometry": {"type": "Point", "coordinates": [77.344065, 28.655098]}, "properties": {"name": "Sagar Ratna", "city": "ghaziabad"}}, {"type": "Feature", "geometry": {"type": "Point", "coordinates": [77.078899, 28.445281]}, "properties": {"name": "Sagar Ratna", "city": "gurugram"}}, {"type": "Feature", "geometry": {"type": "Point", "coordinates": [77.070815, 28.493648]}, "properties": {"name": "Sagar Ratna", "city": "gurugram"}}, {"type": "Feature", "geometry": {"type": "Point", "coordinates": [77.081297, 28.495428]}, "properties": {"name": "Sagar Ratna", "city": "gurugram"}}, {"type": "Feature", "geometry": {"type": "Point", "coordinates": [77.044707, 28.406484]}, "properties": {"name": "Sagar Ratna", "city": "gurugram"}}, {"type": "Feature", "geometry": {"type": "Point", "coordinates": [77.02998, 28.392191]}, "properties": {"name": "Sagar Ratna", "city": "gurugram"}}, {"type": "Feature", "geometry": {"type": "Point", "coordinates": [77.230402, 28.573021]}, "properties": {"name": "Sagar Ratna", "city": "delhi"}}, {"type": "Feature", "geometry": {"type": "Point", "coordinates": [77.016521, 28.563217]}, "properties": {"name": "Sagar Ratna", "city": "delhi"}}, {"type": "Feature", "geometry": {"type": "Point", "coordinates": [77.294919, 28.589239]}, "properties": {"name": "Sagar Ratna", "city": "delhi"}}, {"type": "Feature", "geometry": {"type": "Point", "coordinates": [77.193781, 28.594044]}, "properties": {"name": "Sagar Ratna", "city": "delhi"}}, {"type": "Feature", "geometry": {"type": "Point", "coordinates": [77.218234, 28.63534]}, "properties": {"name": "Sagar Ratna", "city": "delhi"}}, {"type": "Feature", "geometry": {"type": "Point", "coordinates": [77.22793, 28.573373]}, "properties": {"name": "Sagar Ratna", "city": "delhi"}}, {"type": "Feature", "geometry": {"type": "Point", "coordinates": [77.057953, 28.59026]}, "properties": {"name": "Sagar Ratna", "city": "delhi"}}, {"type": "Feature", "geometry": {"type": "Point", "coordinates": [77.236976, 28.537669]}, "properties": {"name": "Sagar Ratna", "city": "delhi"}}, {"type": "Feature", "geometry": {"type": "Point", "coordinates": [77.074995, 28.629844]}, "properties": {"name": "Sagar Ratna", "city": "delhi"}}, {"type": "Feature", "geometry": {"type": "Point", "coordinates": [77.192369, 28.68006]}, "properties": {"name": "Sagar Ratna", "city": "delhi"}}, {"type": "Feature", "geometry": {"type": "Point", "coordinates": [77.292488, 28.518816]}, "properties": {"name": "Sagar Ratna", "city": "delhi"}}, {"type": "Feature", "geometry": {"type": "Point", "coordinates": [77.136757, 28.631815]}, "properties": {"name": "Sagar Ratna", "city": "delhi"}}, {"type": "Feature", "geometry": {"type": "Point", "coordinates": [77.249577, 28.551403]}, "properties": {"name": "Sagar Ratna", "city": "delhi"}}, {"type": "Feature", "geometry": {"type": "Point", "coordinates": [77.136757, 28.631815]}, "properties": {"name": "Sagar Ratna", "city": "delhi"}}, {"type": "Feature", "geometry": {"type": "Point", "coordinates": [77.130467, 28.703362]}, "properties": {"name": "Sagar Ratna", "city": "delhi"}}, {"type": "Feature", "geometry": {"type": "Point", "coordinates": [77.294619, 28.642307]}, "properties": {"name": "Sagar Ratna", "city": "delhi"}}, {"type": "Feature", "geometry": {"type": "Point", "coordinates": [77.177464, 28.576332]}, "properties": {"name": "Sagar Ratna", "city": "delhi"}}, {"type": "Feature", "geometry": {"type": "Point", "coordinates": [77.052376, 28.383495]}, "properties": {"name": "Sagar Ratna", "city": "gurugram"}}, {"type": "Feature", "geometry": {"type": "Point", "coordinates": [77.156276, 28.543121]}, "properties": {"name": "Sagar Ratna", "city": "delhi"}}, {"type": "Feature", "geometry": {"type": "Point", "coordinates": [77.203596, 28.680964]}, "properties": {"name": "Sagar Ratna", "city": "delhi"}}, {"type": "Feature", "geometry": {"type": "Point", "coordinates": [77.284395, 28.658693]}, "properties": {"name": "Sagar Ratna", "city": "delhi"}}, {"type": "Feature", "geometry": {"type": "Point", "coordinates": [77.292955, 28.608417]}, "properties": {"name": "Sagar Ratna", "city": "delhi"}}, {"type": "Feature", "geometry": {"type": "Point", "coordinates": [77.385942, 28.580169]}, "properties": {"name": "Sagar Ratna", "city": "noida"}}, {"type": "Feature", "geometry": {"type": "Point", "coordinates": [77.15644, 28.525136]}, "properties": {"name": "Sagar Ratna", "city": "delhi"}}, {"type": "Feature", "geometry": {"type": "Point", "coordinates": [77.209906, 28.527638]}, "properties": {"name": "Sagar Ratna", "city": "delhi"}}, {"type": "Feature", "geometry": {"type": "Point", "coordinates": [77.318631, 28.573899]}, "properties": {"name": "Sagar Ratna", "city": "noida"}}, {"type": "Feature", "geometry": {"type": "Point", "coordinates": [77.362838, 28.597009]}, "properties": {"name": "Sagar Ratna", "city": "noida"}}, {"type": "Feature", "geometry": {"type": "Point", "coordinates": [77.318318, 28.570926]}, "properties": {"name": "Sagar Ratna", "city": "noida"}}, {"type": "Feature", "geometry": {"type": "Point", "coordinates": [77.370281, 28.542201]}, "properties": {"name": "Sagar Ratna", "city": "noida"}}, {"type": "Feature", "geometry": {"type": "Point", "coordinates": [77.638066, 28.962579]}, "properties": {"name": "Sagar Ratna", "city": "meerut"}}, {"type": "Feature", "geometry": {"type": "Point", "coordinates": [77.318318, 28.570926]}, "properties": {"name": "Sagar Ratna", "city": "faridabad"}}, {"type": "Feature", "geometry": {"type": "Point", "coordinates": [77.319064, 28.410747]}, "properties": {"name": "Sagar Ratna", "city": "faridabad"}}, {"type": "Feature", "geometry": {"type": "Point", "coordinates": [76.94915, 29.732964]}, "properties": {"name": "Sagar Ratna", "city": "karnal"}}, {"type": "Feature", "geometry": {"type": "Point", "coordinates": [77.097911, 28.451036]}, "properties": {"name": "Sagar Ratna", "city": "gurugram"}}, {"type": "Feature", "geometry": {"type": "Point", "coordinates": [77.219606, 28.626919]}, "properties": {"name": "Sagar Ratna", "city": "delhi"}}, {"type": "Feature", "geometry": {"type": "Point", "coordinates": [77.041489, 28.592627]}, "properties": {"name": "Sagar Ratna", "city": "delhi"}}, {"type": "Feature", "geometry": {"type": "Point", "coordinates": [77.368154, 28.634042]}, "properties": {"name": "Sagar Ratna", "city": "ghaziabad"}}, {"type": "Feature", "geometry": {"type": "Point", "coordinates": [77.151436, 28.665264]}, "properties": {"name": "Sagar Ratna", "city": "delhi"}}, {"type": "Feature", "geometry": {"type": "Point", "coordinates": [77.217797, 28.634648]}, "properties": {"name": "Das Prakash", "city": "delhi"}}, {"type": "Feature", "geometry": {"type": "Point", "coordinates": [77.178826, 28.696259]}, "properties": {"name": "Das Prakash", "city": "delhi"}}, {"type": "Feature", "geometry": {"type": "Point", "coordinates": [77.203781, 28.551945]}, "properties": {"name": "Das Prakash", "city": "delhi"}}, {"type": "Feature", "geometry": {"type": "Point", "coordinates": [77.34136, 28.586381]}, "properties": {"name": "Das Prakash", "city": "delhi"}}, {"type": "Feature", "geometry": {"type": "Point", "coordinates": [77.367089, 28.539899]}, "properties": {"name": "Das Prakash", "city": "noida"}}, {"type": "Feature", "geometry": {"type": "Point", "coordinates": [77.409581, 28.500798]}, "properties": {"name": "Das Prakash", "city": "noida"}}, {"type": "Feature", "geometry": {"type": "Point", "coordinates": [77.31356, 28.58047]}, "properties": {"name": "Carnatic Caf\u00e9", "city": "noida"}}, {"type": "Feature", "geometry": {"type": "Point", "coordinates": [77.24112, 28.54066]}, "properties": {"name": "Carnatic Caf\u00e9", "city": "delhi"}}, {"type": "Feature", "geometry": {"type": "Point", "coordinates": [77.22683, 28.59115]}, "properties": {"name": "Carnatic Caf\u00e9", "city": "delhi"}}, {"type": "Feature", "geometry": {"type": "Point", "coordinates": [77.08804, 28.5904]}, "properties": {"name": "Carnatic Caf\u00e9", "city": "delhi"}}, {"type": "Feature", "geometry": {"type": "Point", "coordinates": [77.04746, 28.49365]}, "properties": {"name": "Carnatic Caf\u00e9", "city": "gurugram"}}, {"type": "Feature", "geometry": {"type": "Point", "coordinates": [77.216362, 28.631808]}, "properties": {"name": "Madras Coffee House", "city": "delhi"}}, {"type": "Feature", "geometry": {"type": "Point", "coordinates": [77.220819, 28.5683]}, "properties": {"name": "Madras Cafe", "city": "delhi"}}, {"type": "Feature", "geometry": {"type": "Point", "coordinates": [77.209373, 28.644052]}, "properties": {"name": "New Madras Restaurant", "city": "delhi"}}, {"type": "Feature", "geometry": {"type": "Point", "coordinates": [77.238222, 28.629496]}, "properties": {"name": "Madras Cafe", "city": "delhi"}}, {"type": "Feature", "geometry": {"type": "Point", "coordinates": [77.071638, 28.586743]}, "properties": {"name": "Madras Cafe", "city": "delhi"}}, {"type": "Feature", "geometry": {"type": "Point", "coordinates": [77.072039, 28.238767]}, "properties": {"name": "Madras Cafe", "city": "delhi"}}, {"type": "Feature", "geometry": {"type": "Point", "coordinates": [77.26608, 28.659808]}, "properties": {"name": "Madras Cafe", "city": "delhi"}}, {"type": "Feature", "geometry": {"type": "Point", "coordinates": [77.282093, 28.651181]}, "properties": {"name": "Madras Cafe", "city": "delhi"}}, {"type": "Feature", "geometry": {"type": "Point", "coordinates": [77.260094, 28.662546]}, "properties": {"name": "Madras Cafe", "city": "delhi"}}, {"type": "Feature", "geometry": {"type": "Point", "coordinates": [77.334721, 28.541251]}, "properties": {"name": "Madras Cafe", "city": "delhi"}}, {"type": "Feature", "geometry": {"type": "Point", "coordinates": [77.288531, 28.646875]}, "properties": {"name": "Madras Cafe", "city": "delhi"}}, {"type": "Feature", "geometry": {"type": "Point", "coordinates": [77.303196, 28.635507]}, "properties": {"name": "Madras Cafe", "city": "delhi"}}, {"type": "Feature", "geometry": {"type": "Point", "coordinates": [77.284564, 28.621046]}, "properties": {"name": "Anna Madras Cafe", "city": "delhi"}}, {"type": "Feature", "geometry": {"type": "Point", "coordinates": [77.312007, 28.66964]}, "properties": {"name": "Madras Cafe", "city": "delhi"}}, {"type": "Feature", "geometry": {"type": "Point", "coordinates": [77.206842, 28.710381]}, "properties": {"name": "Madras Cafe", "city": "delhi"}}, {"type": "Feature", "geometry": {"type": "Point", "coordinates": [77.120617, 28.703566]}, "properties": {"name": "Madras Cafe", "city": "delhi"}}, {"type": "Feature", "geometry": {"type": "Point", "coordinates": [77.076412, 28.710324]}, "properties": {"name": "Madras Cafe", "city": "delhi"}}, {"type": "Feature", "geometry": {"type": "Point", "coordinates": [77.110751, 28.706076]}, "properties": {"name": "Madras Cafe", "city": "delhi"}}, {"type": "Feature", "geometry": {"type": "Point", "coordinates": [77.117936, 28.739439]}, "properties": {"name": "Madras Cafe", "city": "delhi"}}, {"type": "Feature", "geometry": {"type": "Point", "coordinates": [77.28522, 28.677131]}, "properties": {"name": "Madras Cafe", "city": "delhi"}}, {"type": "Feature", "geometry": {"type": "Point", "coordinates": [77.126443, 28.703658]}, "properties": {"name": "Madras Cafe", "city": "delhi"}}, {"type": "Feature", "geometry": {"type": "Point", "coordinates": [77.120822, 28.710897]}, "properties": {"name": "Madras Cafe", "city": "delhi"}}, {"type": "Feature", "geometry": {"type": "Point", "coordinates": [77.279976, 28.659837]}, "properties": {"name": "Grand Madras Cafe", "city": "delhi"}}, {"type": "Feature", "geometry": {"type": "Point", "coordinates": [77.061168, 28.700497]}, "properties": {"name": "Madras Cafe", "city": "delhi"}}]}